{"business_id":"Pns2l4eNsfO8kk83dixA6A","name":"Abby Rappoport, LAC, CMQ","address":"1616 Chapala St, Ste 2","city":"Santa Barbara","state":"CA","postal_code":"93101","latitude":34.4266787,"longitude":-119.7111968,"stars":5.0,"review_count":7,"is_open":0,"attributes":{"ByAppointmentOnly":"True"},"categories":"Doctors, Traditional Chinese Medicine, Naturopathic\/Holistic, Acupuncture, Health & Medical, Nutritionists","hours":null}
{"business_id":"mpf3x-BjTdTEA3yCZrAYPw","name":"The UPS Store","address":"87 Grasso Plaza Shopping Center","city":"Affton","state":"MO","postal_code":"63123","latitude":38.551126,"longitude":-90.335695,"stars":3.0,"review_count":15,"is_open":1,"attributes":{"BusinessAcceptsCreditCards":"True"},"categories":"Shipping Centers, Local Services, Notaries, Mailbox Centers, Printing Services","hours":{"Monday":"0:0-0:0","Tuesday":"8:0-18:30","Wednesday":"8:0-18:30","Thursday":"8:0-18:30","Friday":"8:0-18:30","Saturday":"8:0-14:0"}}
{"business_id":"tUFrWirKiKi_TAnsVWINQQ","name":"Target","address":"5255 E Broadway Blvd","city":"Tucson","state":"AZ","postal_code":"85711","latitude":32.223236,"longitude":-110.880452,"stars":3.5,"review_count":22,"is_open":0,"attributes":{"BikeParking":"True","BusinessAcceptsCreditCards":"True","RestaurantsPriceRange2":"2","CoatCheck":"False","RestaurantsTakeOut":"False","RestaurantsDelivery":"False","Caters":"False","WiFi":"u'no'","BusinessParking":"{'garage': False, 'street': False, 'validated': False, 'lot': True, 'valet': False}","WheelchairAccessible":"True","HappyHour":"False","OutdoorSeating":"False","HasTV":"False","RestaurantsReservations":"False","DogsAllowed":"False","ByAppointmentOnly":"False"},"categories":"Department Stores, Shopping, Fashion, Home & Garden, Electronics, Furniture Stores","hours":{"Monday":"8:0-22:0","Tuesday":"8:0-22:0","Wednesday":"8:0-22:0","Thursday":"8:0-22:0","Friday":"8:0-23:0","Saturday":"8:0-23:0","Sunday":"8:0-22:0"}}
{"business_id":"MTSW4McQd7CbVtyjqoe9mw","name":"St Honore Pastries","address":"935 Race St","city":"Philadelphia","state":"PA","postal_code":"19107","latitude":39.9555052,"longitude":-75.1555641,"stars":4.0,"review_count":80,"is_open":1,"attributes":{"RestaurantsDelivery":"False","OutdoorSeating":"False","BusinessAcceptsCreditCards":"False","BusinessParking":"{'garage': False, 'street': True, 'validated': False, 'lot': False, 'valet': False}","BikeParking":"True","RestaurantsPriceRange2":"1","RestaurantsTakeOut":"True","ByAppointmentOnly":"False","WiFi":"u'free'","Alcohol":"u'none'","Caters":"True"},"categories":"Restaurants, Food, Bubble Tea, Coffee & Tea, Bakeries","hours":{"Monday":"7:0-20:0","Tuesday":"7:0-20:0","Wednesday":"7:0-20:0","Thursday":"7:0-20:0","Friday":"7:0-21:0","Saturday":"7:0-21:0","Sunday":"7:0-21:0"}}
{"business_id":"mWMc6_wTdE0EUBKIGXDVfA","name":"Perkiomen Valley Brewery","address":"101 Walnut St","city":"Green Lane","state":"PA","postal_code":"18054","latitude":40.3381827,"longitude":-75.4716585,"stars":4.5,"review_count":13,"is_open":1,"attributes":{"BusinessAcceptsCreditCards":"True","WheelchairAccessible":"True","RestaurantsTakeOut":"True","BusinessParking":"{'garage': None, 'street': None, 'validated': None, 'lot': True, 'valet': False}","BikeParking":"True","GoodForKids":"True","Caters":"False"},"categories":"Brewpubs, Breweries, Food","hours":{"Wednesday":"14:0-22:0","Thursday":"16:0-22:0","Friday":"12:0-22:0","Saturday":"12:0-22:0","Sunday":"12:0-18:0"}}
{"business_id":"CF33F8-E6oudUQ46HnavjQ","name":"Sonic Drive-In","address":"615 S Main St","city":"Ashland City","state":"TN","postal_code":"37015","latitude":36.269593,"longitude":-87.058943,"stars":2.0,"review_count":6,"is_open":1,"attributes":{"BusinessParking":"None","BusinessAcceptsCreditCards":"True","RestaurantsAttire":"u'casual'","OutdoorSeating":"True","RestaurantsReservations":"False","Caters":"False","RestaurantsTakeOut":"True","Alcohol":"u'none'","Ambience":"None","GoodForKids":"True","RestaurantsPriceRange2":"1","ByAppointmentOnly":"False","CoatCheck":"False","DogsAllowed":"False","RestaurantsTableService":"False","RestaurantsGoodForGroups":"True","RestaurantsDelivery":"True","WiFi":"u'no'","WheelchairAccessible":"True","HasTV":"True","HappyHour":"False","DriveThru":"True","BikeParking":"False"},"categories":"Burgers, Fast Food, Sandwiches, Food, Ice Cream & Frozen Yogurt, Restaurants","hours":{"Monday":"0:0-0:0","Tuesday":"6:0-22:0","Wednesday":"6:0-22:0","Thursday":"6:0-22:0","Friday":"9:0-0:0","Saturday":"9:0-22:0","Sunday":"8:0-22:0"}}
{"business_id":"n_0UpQx1hsNbnPUSlodU8w","name":"Famous Footwear","address":"8522 Eager Road, Dierbergs Brentwood Point","city":"Brentwood","state":"MO","postal_code":"63144","latitude":38.627695,"longitude":-90.340465,"stars":2.5,"review_count":13,"is_open":1,"attributes":{"BusinessAcceptsCreditCards":"True","RestaurantsPriceRange2":"2","BikeParking":"True","BusinessParking":"{'garage': False, 'street': False, 'validated': False, 'lot': True, 'valet': False}"},"categories":"Sporting Goods, Fashion, Shoe Stores, Shopping, Sports Wear, Accessories","hours":{"Monday":"0:0-0:0","Tuesday":"10:0-18:0","Wednesday":"10:0-18:0","Thursday":"10:0-18:0","Friday":"10:0-18:0","Saturday":"10:0-18:0","Sunday":"12:0-18:0"}}
{"business_id":"qkRM_2X51Yqxk3btlwAQIg","name":"Temple Beth-El","address":"400 Pasadena Ave S","city":"St. Petersburg","state":"FL","postal_code":"33707","latitude":27.76659,"longitude":-82.732983,"stars":3.5,"review_count":5,"is_open":1,"attributes":null,"categories":"Synagogues, Religious Organizations","hours":{"Monday":"9:0-17:0","Tuesday":"9:0-17:0","Wednesday":"9:0-17:0","Thursday":"9:0-17:0","Friday":"9:0-17:0"}}
{"business_id":"k0hlBqXX-Bt0vf1op7Jr1w","name":"Tsevi's Pub And Grill","address":"8025 Mackenzie Rd","city":"Affton","state":"MO","postal_code":"63123","latitude":38.5651648,"longitude":-90.3210868,"stars":3.0,"review_count":19,"is_open":0,"attributes":{"Caters":"True","Alcohol":"u'full_bar'","RestaurantsAttire":"u'casual'","RestaurantsDelivery":"False","RestaurantsTakeOut":"True","HasTV":"True","NoiseLevel":"u'average'","BusinessAcceptsCreditCards":"True","OutdoorSeating":"True","BusinessParking":"{'garage': False, 'street': False, 'validated': False, 'lot': True, 'valet': False}","Ambience":"{'romantic': False, 'intimate': False, 'touristy': False, 'hipster': False, 'divey': False, 'classy': False, 'trendy': False, 'upscale': False, 'casual': False}","RestaurantsPriceRange2":"1","GoodForKids":"True","WiFi":"u'free'","RestaurantsReservations":"False","RestaurantsGoodForGroups":"True"},"categories":"Pubs, Restaurants, Italian, Bars, American (Traditional), Nightlife, Greek","hours":null}
{"business_id":"bBDDEgkFA1Otx9Lfe7BZUQ","name":"Sonic Drive-In","address":"2312 Dickerson Pike","city":"Nashville","state":"TN","postal_code":"37207","latitude":36.2081024,"longitude":-86.7681696,"stars":1.5,"review_count":10,"is_open":1,"attributes":{"RestaurantsAttire":"'casual'","RestaurantsGoodForGroups":"False","BusinessAcceptsCreditCards":"True","OutdoorSeating":"True","GoodForKids":"True","Alcohol":"u'none'","BusinessParking":"{'garage': False, 'street': False, 'validated': False, 'lot': False, 'valet': False}","DogsAllowed":"False","RestaurantsTableService":"False","ByAppointmentOnly":"False","WiFi":"u'no'","RestaurantsPriceRange2":"1","RestaurantsReservations":"False","HasTV":"True","RestaurantsDelivery":"True","CoatCheck":"False","Caters":"False","RestaurantsTakeOut":"True","DriveThru":"True","HappyHour":"False","WheelchairAccessible":"True"},"categories":"Ice Cream & Frozen Yogurt, Fast Food, Burgers, Restaurants, Food","hours":{"Monday":"0:0-0:0","Tuesday":"6:0-21:0","Wednesday":"6:0-21:0","Thursday":"6:0-16:0","Friday":"6:0-16:0","Saturday":"6:0-17:0","Sunday":"6:0-21:0"}}
{"business_id":"UJsufbvfyfONHeWdvAHKjA","name":"Marshalls","address":"21705 Village Lakes Sc Dr","city":"Land O' Lakes","state":"FL","postal_code":"34639","latitude":28.1904587953,"longitude":-82.4573802199,"stars":3.5,"review_count":6,"is_open":1,"attributes":{"RestaurantsPriceRange2":"2","BikeParking":"True","BusinessAcceptsCreditCards":"True","BusinessParking":"{'garage': False, 'street': False, 'validated': False, 'lot': False, 'valet': False}"},"categories":"Department Stores, Shopping, Fashion","hours":{"Monday":"9:30-21:30","Tuesday":"9:30-21:30","Wednesday":"9:30-21:30","Thursday":"9:30-21:30","Friday":"9:30-21:30","Saturday":"9:30-21:30","Sunday":"10:0-20:0"}}
{"business_id":"eEOYSgkmpB90uNA7lDOMRA","name":"Vietnamese Food Truck","address":"","city":"Tampa Bay","state":"FL","postal_code":"33602","latitude":27.9552692,"longitude":-82.4563199,"stars":4.0,"review_count":10,"is_open":1,"attributes":{"Alcohol":"'none'","OutdoorSeating":"None","RestaurantsReservations":"False","Ambience":"{'touristy': False, 'hipster': False, 'romantic': False, 'divey': False, 'intimate': False, 'trendy': False, 'upscale': False, 'classy': False, 'casual': False}","GoodForMeal":"{'dessert': False, 'latenight': False, 'lunch': False, 'dinner': False, 'brunch': False, 'breakfast': False}","BusinessParking":"{'garage': False, 'street': False, 'validated': False, 'lot': False, 'valet': False}"},"categories":"Vietnamese, Food, Restaurants, Food Trucks","hours":{"Monday":"11:0-14:0","Tuesday":"11:0-14:0","Wednesday":"11:0-14:0","Thursday":"11:0-14:0","Friday":"11:0-14:0","Saturday":"5:0-10:0","Sunday":"15:0-18:0"}}
{"business_id":"il_Ro8jwPlHresjw9EGmBg","name":"Denny's","address":"8901 US 31 S","city":"Indianapolis","state":"IN","postal_code":"46227","latitude":39.6371332838,"longitude":-86.127217412,"stars":2.5,"review_count":28,"is_open":1,"attributes":{"RestaurantsReservations":"False","RestaurantsTakeOut":"True","RestaurantsAttire":"'casual'","GoodForKids":"True","BikeParking":"False","RestaurantsPriceRange2":"1","BusinessAcceptsCreditCards":"True","GoodForMeal":"{'dessert': False, 'latenight': False, 'lunch': False, 'dinner': False, 'brunch': False, 'breakfast': False}","RestaurantsGoodForGroups":"True","OutdoorSeating":"False","WiFi":"u'no'","Alcohol":"'none'","RestaurantsDelivery":"True","BusinessParking":"{'garage': None, 'street': False, 'validated': None, 'lot': True, 'valet': False}","HasTV":"True","Ambience":"{'touristy': None, 'hipster': None, 'romantic': False, 'divey': None, 'intimate': None, 'trendy': None, 'upscale': None, 'classy': None, 'casual': True}"},"categories":"American (Traditional), Restaurants, Diners, Breakfast & Brunch","hours":{"Monday":"6:0-22:0","Tuesday":"6:0-22:0","Wednesday":"6:0-22:0","Thursday":"6:0-22:0","Friday":"6:0-22:0","Saturday":"6:0-22:0","Sunday":"6:0-22:0"}}
{"business_id":"jaxMSoInw8Poo3XeMJt8lQ","name":"Adams Dental","address":"15 N Missouri Ave","city":"Clearwater","state":"FL","postal_code":"33755","latitude":27.966235,"longitude":-82.787412,"stars":5.0,"review_count":10,"is_open":1,"attributes":{"ByAppointmentOnly":"True"},"categories":"General Dentistry, Dentists, Health & Medical, Cosmetic Dentists","hours":{"Monday":"7:30-15:30","Tuesday":"7:30-15:30","Wednesday":"7:30-15:30","Thursday":"7:30-15:30"}}
{"business_id":"0bPLkL0QhhPO5kt1_EXmNQ","name":"Zio's Italian Market","address":"2575 E Bay Dr","city":"Largo","state":"FL","postal_code":"33771","latitude":27.9161159,"longitude":-82.7604608,"stars":4.5,"review_count":100,"is_open":0,"attributes":{"OutdoorSeating":"False","RestaurantsGoodForGroups":"False","WiFi":"u'no'","RestaurantsPriceRange2":"1","RestaurantsDelivery":"True","RestaurantsAttire":"u'casual'","BusinessAcceptsCreditCards":"True","RestaurantsTakeOut":"True","Caters":"True","NoiseLevel":"u'average'","Ambience":"{'romantic': False, 'intimate': False, 'touristy': False, 'hipster': False, 'divey': False, 'classy': False, 'trendy': False, 'upscale': False, 'casual': True}","GoodForKids":"True","BusinessAcceptsBitcoin":"False","BusinessParking":"{'garage': False, 'street': False, 'validated': False, 'lot': True, 'valet': False}","BikeParking":"True","RestaurantsTableService":"False","Alcohol":"u'none'","RestaurantsReservations":"False","GoodForMeal":"{'dessert': False, 'latenight': False, 'lunch': True, 'dinner': False, 'brunch': False, 'breakfast': False}","HasTV":"True","WheelchairAccessible":"True"},"categories":"Food, Delis, Italian, Bakeries, Restaurants","hours":{"Monday":"10:0-18:0","Tuesday":"10:0-20:0","Wednesday":"10:0-20:0","Thursday":"10:0-20:0","Friday":"10:0-20:0","Saturday":"10:0-20:0"}}
{"business_id":"MUTTqe8uqyMdBl186RmNeA","name":"Tuna Bar","address":"205 Race St","city":"Philadelphia","state":"PA","postal_code":"19106","latitude":39.953949,"longitude":-75.1432262,"stars":4.0,"review_count":245,"is_open":1,"attributes":{"RestaurantsReservations":"True","RestaurantsGoodForGroups":"True","RestaurantsAttire":"'casual'","BusinessAcceptsCreditCards":"True","WiFi":"'free'","HasTV":"False","RestaurantsTakeOut":"True","Ambience":"{'touristy': False, 'hipster': False, 'romantic': False, 'divey': False, 'intimate': False, 'trendy': False, 'upscale': False, 'classy': True, 'casual': False}","GoodForKids":"False","GoodForMeal":"{'dessert': True, 'latenight': None, 'lunch': None, 'dinner': True, 'brunch': None, 'breakfast': None}","NoiseLevel":"u'average'","RestaurantsPriceRange2":"2","Alcohol":"'full_bar'","DogsAllowed":"False","HappyHour":"True","RestaurantsDelivery":"True","WheelchairAccessible":"True","OutdoorSeating":"True","RestaurantsTableService":"True","BusinessParking":"{u'valet': False, u'garage': None, u'street': True, u'lot': False, u'validated': None}"},"categories":"Sushi Bars, Restaurants, Japanese","hours":{"Tuesday":"13:30-22:0","Wednesday":"13:30-22:0","Thursday":"13:30-22:0","Friday":"13:30-23:0","Saturday":"13:30-23:0","Sunday":"13:30-22:0"}}
{"business_id":"rBmpy_Y1UbBx8ggHlyb7hA","name":"Arizona Truck Outfitters","address":"625 N Stone Ave","city":"Tucson","state":"AZ","postal_code":"85705","latitude":32.2298719,"longitude":-110.9723419,"stars":4.5,"review_count":10,"is_open":1,"attributes":{"DriveThru":"False","BusinessAcceptsCreditCards":"True","WiFi":"u'free'","ByAppointmentOnly":"False"},"categories":"Automotive, Auto Parts & Supplies, Auto Customization","hours":{"Monday":"0:0-0:0","Tuesday":"8:0-17:0","Wednesday":"8:0-17:0","Thursday":"8:0-17:0","Friday":"8:0-17:0","Saturday":"8:0-14:0","Sunday":"0:0-0:0"}}
{"business_id":"M0XSSHqrASOnhgbWDJIpQA","name":"Herb Import Co","address":"712 Adams St","city":"New Orleans","state":"LA","postal_code":"70118","latitude":29.9414679565,"longitude":-90.129952757,"stars":4.0,"review_count":5,"is_open":1,"attributes":{"BusinessParking":"{'garage': False, 'street': True, 'validated': False, 'lot': False, 'valet': False}","BusinessAcceptsCreditCards":"True","RestaurantsPriceRange2":"2","BikeParking":"True"},"categories":"Vape Shops, Tobacco Shops, Personal Shopping, Vitamins & Supplements, Shopping","hours":{"Monday":"10:0-19:0","Tuesday":"10:0-19:0","Wednesday":"10:0-19:0","Thursday":"10:0-19:0","Friday":"10:0-19:0","Saturday":"10:0-19:0","Sunday":"10:0-19:0"}}
{"business_id":"8wGISYjYkE2tSqn3cDMu8A","name":"Nifty Car Rental","address":"1241 Airline Dr","city":"Kenner","state":"LA","postal_code":"70062","latitude":29.981183,"longitude":-90.2540123,"stars":3.5,"review_count":14,"is_open":1,"attributes":null,"categories":"Automotive, Car Rental, Hotels & Travel, Truck Rental","hours":{"Monday":"8:0-17:0","Tuesday":"8:0-17:0","Wednesday":"8:0-17:0","Thursday":"8:0-17:0","Friday":"8:0-17:0","Saturday":"9:0-15:0","Sunday":"9:0-12:0"}}